// Module included in the following assemblies:
//
// * networking/ptp/configuring-ptp.adoc

:_mod-docs-content-type: PROCEDURE
[id="ptp-configuring-dynamic-leap-seconds-handling-for-tgm_{context}"]
= Configuring dynamic leap seconds handling for PTP grandmaster clocks

The PTP Operator container image includes the latest `leap-seconds.list` file  that is available at the time of release.
You can configure the PTP Operator to automatically update the leap second file by using Global Positioning System (GPS) announcements.

Leap second information is stored in an automatically generated `ConfigMap` resource named `leap-configmap` in the `openshift-ptp` namespace.
The PTP Operator mounts the `leap-configmap` resource as a volume in the `linuxptp-daemon` pod that is accessible by the `ts2phc` process.

If the GPS satellite broadcasts new leap second data, the PTP Operator updates the `leap-configmap` resource with the new data.
The `ts2phc` process picks up the changes automatically.

[NOTE]
====
The following procedure is provided as reference.
The {product-version} version of the PTP Operator enables automatic leap second management by default.
====

.Prerequisites

* You have installed the OpenShift CLI (`oc`).

* You have logged in as a user with `cluster-admin` privileges.

* You have installed the PTP Operator and configured a PTP grandmaster clock (T-GM) in the cluster.

.Procedure

. Configure automatic leap second handling in the `phc2sysOpts` section of the `PtpConfig` CR.
Set the following options:
+
[source,yaml]
----
phc2sysOpts: -r -u 0 -m -N 8 -R 16 -S 2 -s ens2f0 -n 24 <1>
----
+
[NOTE]
====
Previously, the T-GM required an offset adjustment in the `phc2sys` configuration (`-O -37`) to account for historical leap seconds.
This is no longer needed.
====

. Configure the Intel e810 NIC to enable periodical reporting of `NAV-TIMELS` messages by the GPS receiver in the `spec.profile.plugins.e810.ublxCmds` section of the `PtpConfig` CR.
For example:
+
[source,yaml]
----
- args: #ubxtool -P 29.20 -p CFG-MSG,1,38,248
    - "-P"
    - "29.20"
    - "-p"
    - "CFG-MSG,1,38,248"
----

.Verification

. Validate that the configured T-GM is receiving `NAV-TIMELS` messages from the connected GPS.
Run the following command:
+
[source,terminal]
----
$ oc -n openshift-ptp -c linuxptp-daemon-container exec -it $(oc -n openshift-ptp get pods -o name | grep daemon) -- ubxtool -t -p NAV-TIMELS -P 29.20
----
+
.Example output
[source,terminal]
----
1722509534.4417
UBX-NAV-STATUS:
  iTOW 384752000 gpsFix 5 flags 0xdd fixStat 0x0 flags2 0x8
  ttff 18261, msss 1367642864

1722509534.4419
UBX-NAV-TIMELS:
  iTOW 384752000 version 0 reserved2 0 0 0 srcOfCurrLs 2
  currLs 18 srcOfLsChange 2 lsChange 0 timeToLsEvent 70376866
  dateOfLsGpsWn 2441 dateOfLsGpsDn 7 reserved2 0 0 0
  valid x3

1722509534.4421
UBX-NAV-CLOCK:
  iTOW 384752000 clkB 784281 clkD 435 tAcc 3 fAcc 215

1722509535.4477
UBX-NAV-STATUS:
  iTOW 384753000 gpsFix 5 flags 0xdd fixStat 0x0 flags2 0x8
  ttff 18261, msss 1367643864

1722509535.4479
UBX-NAV-CLOCK:
  iTOW 384753000 clkB 784716 clkD 435 tAcc 3 fAcc 218
----

. Validate that the `leap-configmap` resource has been successfully generated by the PTP Operator and is up to date with the latest version of the link:https://hpiers.obspm.fr/iers/bul/bulc/ntp/leap-seconds.list[leap-seconds.list].
Run the following command:
+
[source,terminal]
----
$ oc -n openshift-ptp get configmap leap-configmap -o jsonpath='{.data.<node_name>}' <1>
----
<1> Replace `<node_name>` with the node where you have installed and configured the PTP T-GM clock with automatic leap second management.
Escape special characters in the node name.
For example, `node-1\.example\.com`.

+
.Example output
[source,terminal]
----
# Do not edit
# This file is generated automatically by linuxptp-daemon
#$  3913697179
#@  4291747200
2272060800     10    # 1 Jan 1972
2287785600     11    # 1 Jul 1972
2303683200     12    # 1 Jan 1973
2335219200     13    # 1 Jan 1974
2366755200     14    # 1 Jan 1975
2398291200     15    # 1 Jan 1976
2429913600     16    # 1 Jan 1977
2461449600     17    # 1 Jan 1978
2492985600     18    # 1 Jan 1979
2524521600     19    # 1 Jan 1980
2571782400     20    # 1 Jul 1981
2603318400     21    # 1 Jul 1982
2634854400     22    # 1 Jul 1983
2698012800     23    # 1 Jul 1985
2776982400     24    # 1 Jan 1988
2840140800     25    # 1 Jan 1990
2871676800     26    # 1 Jan 1991
2918937600     27    # 1 Jul 1992
2950473600     28    # 1 Jul 1993
2982009600     29    # 1 Jul 1994
3029443200     30    # 1 Jan 1996
3076704000     31    # 1 Jul 1997
3124137600     32    # 1 Jan 1999
3345062400     33    # 1 Jan 2006
3439756800     34    # 1 Jan 2009
3550089600     35    # 1 Jul 2012
3644697600     36    # 1 Jul 2015
3692217600     37    # 1 Jan 2017

#h  e65754d4 8f39962b aa854a61 661ef546 d2af0bfa
----
